{"version": 0.6, "generator": "Overpass API 0.7.62.1 084b4234", "osm3s": {"timestamp_osm_base": "2024-04-09T13:53:30Z", "copyright": "The data included in this document is from www.openstreetmap.org. The data is made available under ODbL."}, "elements": [{"type": "node", "id": 268371846, "lat": 34.0496322, "lon": -118.2510126, "tags": {"name": "Pershing Square", "network": "LACMTA", "operator": "Los Angeles County Metropolitan Transportation Authority", "public_transport": "station", "railway": "station", "station": "subway", "subway": "yes", "wheelchair": "yes", "wikidata": "Q5919683"}}, {"type": "node", "id": 268372325, "lat": 34.0486587, "lon": -118.258743, "tags": {"light_rail": "yes", "location": "underground", "name": "7th Street/Metro Center", "network": "LACMTA", "operator": "Los Angeles County Metropolitan Transportation Authority", "public_transport": "station", "railway": "station", "station": "light_rail", "wheelchair": "yes", "wikidata": "Q3093639"}}, {"type": "node", "id": 268547062, "lat": 34.0558624, "lon": -118.2342859, "tags": {"addr:state": "CA", "name": "Los Angeles Union Station", "name:de": "Los Angeles Hauptbahnhof", "name:en": "Los Angeles Union Station", "network": "Amtrak;Metrolink", "operator": "Los Angeles County Metropolitan Transportation Authority", "platforms": "7", "public_transport": "station", "railway": "station", "railway:position": "mi:0.0", "railway:ref": "LAX", "toilets:wheelchair": "yes", "train": "yes", "wheelchair": "yes", "wikidata": "Q198019", "wikipedia": "en:Union Station (Los Angeles)"}}, {"type": "node", "id": 1866577837, "lat": 34.0331172, "lon": -118.2692364, "tags": {"alt_name": "Grand/Los Angeles Trade-Technical College", "light_rail": "yes", "name": "Grand/LATTC", "network": "LACMTA", "operator": "Los Angeles County Metropolitan Transportation Authority", "public_transport": "station", "railway": "station", "station": "light_rail", "wikidata": "Q5594219"}}, {"type": "node", "id": 2199141362, "lat": 34.0406717, "lon": -118.2661915, "tags": {"light_rail": "yes", "name": "Pico", "network": "LACMTA", "operator": "Los Angeles County Metropolitan Transportation Authority", "public_transport": "station", "railway": "station", "station": "light_rail", "wikidata": "Q4383334"}}, {"type": "node", "id": 2819358596, "lat": 34.0511135, "lon": -118.249856, "tags": {"name": "Hill Street", "public_transport": "stop_position;station", "railway": "station", "station": "funicular"}}, {"type": "node", "id": 3297553268, "lat": 34.0515859, "lon": -118.250591, "tags": {"name": "Olive Street", "public_transport": "stop_position", "railway": "station", "station": "funicular"}}, {"type": "node", "id": 5362648027, "lat": 34.055915, "lon": -118.2347667, "tags": {"light_rail": "yes", "name": "Union Station", "network": "LACMTA", "operator": "Los Angeles County Metropolitan Transportation Authority", "public_transport": "station", "railway": "station", "station": "light_rail"}}, {"type": "node", "id": 5362685533, "lat": 34.0637846, "lon": -118.235871, "tags": {"air_conditioning": "no", "light_rail": "yes", "name": "Chinatown", "network": "LACMTA", "operator": "Los Angeles County Metropolitan Transportation Authority", "public_transport": "station", "railway": "station", "station": "light_rail", "wheelchair": "yes", "wikidata": "Q4383195"}}, {"type": "node", "id": 5404056389, "lat": 34.056135, "lon": -118.234856, "tags": {"internet_access": "wlan", "level": "-2", "name": "Union Station", "network": "LACMTA", "operator": "Los Angeles County Metropolitan Transportation Authority", "platforms": "1", "public_transport": "station", "railway": "station", "station": "subway", "subway": "yes", "toilets:wheelchair": "yes", "wheelchair": "yes"}}, {"type": "node", "id": 6135688782, "lat": 34.0548968, "lon": -118.2460939, "tags": {"name": "Civic Center/Grand Park", "network": "LACMTA", "operator": "Los Angeles County Metropolitan Transportation Authority", "public_transport": "station", "railway": "station", "station": "subway", "subway": "yes", "wheelchair": "yes", "wikidata": "Q5919757"}}, {"type": "node", "id": 6215061051, "lat": 34.0549665, "lon": -118.251427, "tags": {"check_date": "2023-06-15", "light_rail": "yes", "location": "underground", "name": "Grand Avenue Arts/Bunker Hill", "network": "LACMTA", "operator": "Los Angeles County Transportation Authority", "public_transport": "station", "railway": "station", "start_date": "2023-06-16", "station": "light_rail"}}, {"type": "node", "id": 6219631004, "lat": 34.0520767, "lon": -118.246531, "tags": {"check_date": "2023-06-15", "light_rail": "yes", "location": "underground", "name": "Historic Broadway", "network": "LACMTA", "operator": "Los Angeles County Metropolitan Transportation Authority", "public_transport": "station", "railway": "station", "start_date": "2023-06-16", "station": "light_rail", "wheelchair": "yes"}}, {"type": "node", "id": 7365824840, "lat": 34.0488626, "lon": -118.238748, "tags": {"check_date": "2023-06-15", "light_rail": "yes", "name": "Little Tokyo/Arts District", "network": "LACMTA", "operator": "Los Angeles County Metropolitan Transportation Authority", "public_transport": "station", "railway": "station", "start_date": "2023-06-16", "station": "light_rail", "wheelchair": "yes"}}, {"type": "node", "id": 10982032585, "lat": 34.048954, "lon": -118.2385534}, {"type": "node", "id": 10982032586, "lat": 34.0488624, "lon": -118.2390457}, {"type": "node", "id": 10982032587, "lat": 34.0487266, "lon": -118.2390089}, {"type": "node", "id": 10982032588, "lat": 34.0488183, "lon": -118.2385166}, {"type": "node", "id": 10982032600, "lat": 34.0489086, "lon": -118.238797, "tags": {"railway": "subway_entrance", "wheelchair": "yes"}}, {"type": "node", "id": 10982033309, "lat": 34.0487729, "lon": -118.2387601, "tags": {"railway": "subway_entrance", "wheelchair": "yes"}}, {"type": "way", "id": 1182638453, "nodes": [10982032585, 10982032600, 10982032586, 10982032587, 10982033309, 10982032588, 10982032585], "tags": {"building": "yes", "public_transport": "station", "railway": "station", "station": "subway", "subway": "yes", "wheelchair": "yes"}}]}